{"type":"FeatureCollection","name":"pointds particuliers cabourg","crs":{"type":"name","properties":{"name":"urn:ogc:def:crs:OGC:1.3:CRS84"}},"features":[{"type":"Feature","properties":{"Name":"Le Beau Site","collecte_renf_26":"Oui","collecte_renf_27":"Oui"},"geometry":{"type":"Point","coordinates":[-0.1209594,49.2929916,0.0]}},{"type":"Feature","properties":{"Name":"Place du Marché","collecte_renf_26":"Oui","collecte_renf_27":"Oui"},"geometry":{"type":"Point","coordinates":[-0.1144089,49.2891174,0.0]}},{"type":"Feature","properties":{"Name":"Casino Cabourg","collecte_renf_26":"Oui","collecte_renf_27":"Oui"},"geometry":{"type":"Point","coordinates":[-0.1164002,49.293653,0.0]}},{"type":"Feature","properties":{"Name":"Le Grand Hôtel","collecte_renf_26":"Oui","collecte_renf_27":"Oui"},"geometry":{"type":"Point","coordinates":[-0.1156228,49.2939212,0.0]}},{"type":"Feature","properties":{"Name":"Le Biquets","collecte_renf_26":"Oui","collecte_renf_27":"Oui"},"geometry":{"type":"Point","coordinates":[-0.1254061,49.2920456,0.0]}},{"type":"Feature","properties":{"Name":"Résidence Clos du Golf ","collecte_renf_26":"Non","collecte_renf_27":"Oui"},"geometry":{"type":"Point","coordinates":[-0.1216827,49.2780745,0.0]}},{"type":"Feature","properties":{"Name":"Résidence Cap Cabourg","collecte_renf_26":"Non","collecte_renf_27":"Oui"},"geometry":{"type":"Point","coordinates":[-0.1049256,49.2960736,0.0]}},{"type":"Feature","properties":{"Name":"Thalazur","collecte_renf_26":"Non","collecte_renf_27":"Oui"},"geometry":{"type":"Point","coordinates":[-0.1314434,49.2895871,0.0]}},{"type":"Feature","properties":{"Name":"Sweet Home","collecte_renf_26":"Non","collecte_renf_27":"Oui"},"geometry":{"type":"Point","coordinates":[-0.1334861,49.2896593,0.0]}},{"type":"Feature","properties":{"Name":"Camping Pierre Soismier - Mondeville","collecte_renf_26":"Non","collecte_renf_27":"Oui"},"geometry":{"type":"Point","coordinates":[-0.1340015,49.2871805,0.0]}},{"type":"Feature","properties":{"Name":"Fleur Marine","collecte_renf_26":"Non","collecte_renf_27":"Oui"},"geometry":{"type":"Point","coordinates":[-0.1278823,49.290034,0.0]}},{"type":"Feature","properties":{"Name":"Résidences Les Marines","collecte_renf_26":"Non","collecte_renf_27":"Oui"},"geometry":{"type":"Point","coordinates":[-0.1365097,49.2891877,0.0]}},{"type":"Feature","properties":{"Name":"Camping le Toucan","collecte_renf_26":"Non","collecte_renf_27":"Oui"},"geometry":{"type":"Point","coordinates":[-0.1393724,49.2829478,0.0]}},{"type":"Feature","properties":{"Name":"Camping la Pommeraie","collecte_renf_26":"Non","collecte_renf_27":"Oui"},"geometry":{"type":"Point","coordinates":[-0.137252,49.2821362,0.0]}},{"type":"Feature","properties":{"Name":"Jeff Cuisine Sincère","collecte_renf_26":"Non","collecte_renf_27":"Oui"},"geometry":{"type":"Point","coordinates":[-0.1382788,49.2824265,0.0]}},{"type":"Feature","properties":{"Name":"Camping Vert Pré","collecte_renf_26":"Non","collecte_renf_27":"Oui"},"geometry":{"type":"Point","coordinates":[-0.1439947,49.280087,0.0]}},{"type":"Feature","properties":{"Name":"California Park","collecte_renf_26":"Non","collecte_renf_27":"Oui"},"geometry":{"type":"Point","coordinates":[-0.1332359,49.2759277,0.0]}},{"type":"Feature","properties":{"Name":"L'Hippodrome - Cabourg","collecte_renf_26":"Non","collecte_renf_27":"Oui"},"geometry":{"type":"Point","coordinates":[-0.1212477,49.2798074,0.0]}}]}